[{"name":"Passenger 1","birth_date":"1997-02-17","cpf":"23586470045","address":{"state":"SP","city":"Cotia","street":"Rodovia Raposo Tavares","lat":-23.6017123,"lon":-46.9389213},"ordered_trips":["093675ad-f9ca-4cc5-b9fe-0f0633014cb9"],"blocked":false},{"name":"Passenger 2","birth_date":"1997-02-17","cpf":"56251748060","address":{"state":"SP","city":"São Paulo","street":"Praça Franklin Roosevelt","lat":-23.5485608,"lon":-46.6462826},"ordered_trips":["d58d4437-8dd6-4b04-86a9-46624fca7b3d","2847593e-1db9-4342-9272-7b3a00baeb11","9b6caa5e-1eae-490a-95f7-5845d5167099"],"blocked":false},{"name":"Passenger 3","birth_date":"1997-02-17","cpf":"54402524016","address":{"state":"SP","city":"São Paulo","street":"Avenida Paulista","lat":-23.5613545,"lon":-46.6564943},"ordered_trips":["6b817801-c26d-490c-afae-1f0fd8fdaca1","f3cfb07a-eeed-42d3-b968-5777111aca07","75ba06cf-5613-4778-b297-cd991366d610","cb5e80c4-b7ea-4e6d-a3f4-a4601f7f25b8","0623ec5a-1171-400f-bd4e-0b91d910adda"],"blocked":false},{"name":"Passenger 4","birth_date":"1997-02-17","cpf":"25683725089","address":{"state":"SP","city":"São Paulo","street":"Rua Augusta","lat":-23.5569581,"lon":-46.65896770000001},"ordered_trips":["d66853d5-9875-4b6e-9e77-60ebab896ae8"],"blocked":false},{"name":"Passenger 5","birth_date":"1997-02-17","cpf":"29931789034","address":{"state":"SP","city":"São Paulo","street":"Rua Serra de Bragança","lat":-23.5444041,"lon":-46.5655021},"ordered_trips":[],"blocked":false}]